{
  "2611010100": {
    "lat": 35.08794,
    "lng": 129.01231,
    "name": "영주동",
    "sigunguCd": "26110",
    "bjdongCd": "10100"
  },
  "2611010200": {
    "lat": 35.08794,
    "lng": 129.01831,
    "name": "대창동1가",
    "sigunguCd": "26110",
    "bjdongCd": "10200"
  },
  "2611010300": {
    "lat": 35.08794,
    "lng": 129.02431,
    "name": "대창동2가",
    "sigunguCd": "26110",
    "bjdongCd": "10300"
  },
  "2611010400": {
    "lat": 35.08794,
    "lng": 129.03031,
    "name": "중앙동1가",
    "sigunguCd": "26110",
    "bjdongCd": "10400"
  },
  "2611010500": {
    "lat": 35.08794,
    "lng": 129.03631,
    "name": "중앙동2가",
    "sigunguCd": "26110",
    "bjdongCd": "10500"
  },
  "2611010600": {
    "lat": 35.08794,
    "lng": 129.04231,
    "name": "중앙동3가",
    "sigunguCd": "26110",
    "bjdongCd": "10600"
  },
  "2611010700": {
    "lat": 35.08794,
    "lng": 129.04831,
    "name": "중앙동4가",
    "sigunguCd": "26110",
    "bjdongCd": "10700"
  },
  "2611010800": {
    "lat": 35.09394,
    "lng": 129.01231,
    "name": "중앙동5가",
    "sigunguCd": "26110",
    "bjdongCd": "10800"
  },
  "2611010900": {
    "lat": 35.09394,
    "lng": 129.01831,
    "name": "중앙동6가",
    "sigunguCd": "26110",
    "bjdongCd": "10900"
  },
  "2611011000": {
    "lat": 35.09394,
    "lng": 129.02431,
    "name": "중앙동7가",
    "sigunguCd": "26110",
    "bjdongCd": "11000"
  },
  "2611011100": {
    "lat": 35.09394,
    "lng": 129.03031,
    "name": "동광동1가",
    "sigunguCd": "26110",
    "bjdongCd": "11100"
  },
  "2611011200": {
    "lat": 35.09394,
    "lng": 129.03631,
    "name": "동광동2가",
    "sigunguCd": "26110",
    "bjdongCd": "11200"
  },
  "2611011300": {
    "lat": 35.09394,
    "lng": 129.04231,
    "name": "동광동3가",
    "sigunguCd": "26110",
    "bjdongCd": "11300"
  },
  "2611011400": {
    "lat": 35.09394,
    "lng": 129.04831,
    "name": "동광동4가",
    "sigunguCd": "26110",
    "bjdongCd": "11400"
  },
  "2611011500": {
    "lat": 35.09994,
    "lng": 129.01231,
    "name": "동광동5가",
    "sigunguCd": "26110",
    "bjdongCd": "11500"
  },
  "2611011600": {
    "lat": 35.09994,
    "lng": 129.01831,
    "name": "대청동1가",
    "sigunguCd": "26110",
    "bjdongCd": "11600"
  },
  "2611011700": {
    "lat": 35.09994,
    "lng": 129.02431,
    "name": "대청동2가",
    "sigunguCd": "26110",
    "bjdongCd": "11700"
  },
  "2611011800": {
    "lat": 35.09994,
    "lng": 129.03031,
    "name": "대청동3가",
    "sigunguCd": "26110",
    "bjdongCd": "11800"
  },
  "2611011900": {
    "lat": 35.09994,
    "lng": 129.03631,
    "name": "대청동4가",
    "sigunguCd": "26110",
    "bjdongCd": "11900"
  },
  "2611012000": {
    "lat": 35.09994,
    "lng": 129.04231,
    "name": "보수동1가",
    "sigunguCd": "26110",
    "bjdongCd": "12000"
  },
  "2611012100": {
    "lat": 35.09994,
    "lng": 129.04831,
    "name": "보수동2가",
    "sigunguCd": "26110",
    "bjdongCd": "12100"
  },
  "2611012200": {
    "lat": 35.10594,
    "lng": 129.01231,
    "name": "보수동3가",
    "sigunguCd": "26110",
    "bjdongCd": "12200"
  },
  "2611012300": {
    "lat": 35.10594,
    "lng": 129.01831,
    "name": "부평동1가",
    "sigunguCd": "26110",
    "bjdongCd": "12300"
  },
  "2611012400": {
    "lat": 35.10594,
    "lng": 129.02431,
    "name": "부평동2가",
    "sigunguCd": "26110",
    "bjdongCd": "12400"
  },
  "2611012500": {
    "lat": 35.10594,
    "lng": 129.03031,
    "name": "부평동3가",
    "sigunguCd": "26110",
    "bjdongCd": "12500"
  },
  "2611012600": {
    "lat": 35.10594,
    "lng": 129.03631,
    "name": "부평동4가",
    "sigunguCd": "26110",
    "bjdongCd": "12600"
  },
  "2611012700": {
    "lat": 35.10594,
    "lng": 129.04231,
    "name": "신창동1가",
    "sigunguCd": "26110",
    "bjdongCd": "12700"
  },
  "2611012800": {
    "lat": 35.10594,
    "lng": 129.04831,
    "name": "신창동2가",
    "sigunguCd": "26110",
    "bjdongCd": "12800"
  },
  "2611012900": {
    "lat": 35.11194,
    "lng": 129.01231,
    "name": "신창동3가",
    "sigunguCd": "26110",
    "bjdongCd": "12900"
  },
  "2611013000": {
    "lat": 35.11194,
    "lng": 129.01831,
    "name": "신창동4가",
    "sigunguCd": "26110",
    "bjdongCd": "13000"
  },
  "2611013100": {
    "lat": 35.11194,
    "lng": 129.02431,
    "name": "창선동1가",
    "sigunguCd": "26110",
    "bjdongCd": "13100"
  },
  "2611013200": {
    "lat": 35.11194,
    "lng": 129.03031,
    "name": "창선동2가",
    "sigunguCd": "26110",
    "bjdongCd": "13200"
  },
  "2611013300": {
    "lat": 35.11194,
    "lng": 129.03631,
    "name": "광복동1가",
    "sigunguCd": "26110",
    "bjdongCd": "13300"
  },
  "2611013400": {
    "lat": 35.11194,
    "lng": 129.04231,
    "name": "광복동2가",
    "sigunguCd": "26110",
    "bjdongCd": "13400"
  },
  "2611013500": {
    "lat": 35.11194,
    "lng": 129.04831,
    "name": "광복동3가",
    "sigunguCd": "26110",
    "bjdongCd": "13500"
  },
  "2611013600": {
    "lat": 35.11794,
    "lng": 129.01231,
    "name": "남포동1가",
    "sigunguCd": "26110",
    "bjdongCd": "13600"
  },
  "2611013700": {
    "lat": 35.11794,
    "lng": 129.01831,
    "name": "남포동2가",
    "sigunguCd": "26110",
    "bjdongCd": "13700"
  },
  "2611013800": {
    "lat": 35.11794,
    "lng": 129.02431,
    "name": "남포동3가",
    "sigunguCd": "26110",
    "bjdongCd": "13800"
  },
  "2611013900": {
    "lat": 35.11794,
    "lng": 129.03031,
    "name": "남포동4가",
    "sigunguCd": "26110",
    "bjdongCd": "13900"
  },
  "2611014000": {
    "lat": 35.11794,
    "lng": 129.03631,
    "name": "남포동5가",
    "sigunguCd": "26110",
    "bjdongCd": "14000"
  },
  "2611014100": {
    "lat": 35.11794,
    "lng": 129.04231,
    "name": "남포동6가",
    "sigunguCd": "26110",
    "bjdongCd": "14100"
  },
  "2614010100": {
    "lat": 35.11029,
    "lng": 129.00446,
    "name": "동대신동1가",
    "sigunguCd": "26140",
    "bjdongCd": "10100"
  },
  "2614010200": {
    "lat": 35.11029,
    "lng": 129.01046,
    "name": "동대신동2가",
    "sigunguCd": "26140",
    "bjdongCd": "10200"
  },
  "2614010300": {
    "lat": 35.11029,
    "lng": 129.01646,
    "name": "동대신동3가",
    "sigunguCd": "26140",
    "bjdongCd": "10300"
  },
  "2614010400": {
    "lat": 35.11029,
    "lng": 129.02246,
    "name": "서대신동1가",
    "sigunguCd": "26140",
    "bjdongCd": "10400"
  },
  "2614010500": {
    "lat": 35.11029,
    "lng": 129.02846,
    "name": "서대신동2가",
    "sigunguCd": "26140",
    "bjdongCd": "10500"
  },
  "2614010600": {
    "lat": 35.11629,
    "lng": 129.00446,
    "name": "서대신동3가",
    "sigunguCd": "26140",
    "bjdongCd": "10600"
  },
  "2614010700": {
    "lat": 35.11629,
    "lng": 129.01046,
    "name": "부용동1가",
    "sigunguCd": "26140",
    "bjdongCd": "10700"
  },
  "2614010800": {
    "lat": 35.11629,
    "lng": 129.01646,
    "name": "부용동2가",
    "sigunguCd": "26140",
    "bjdongCd": "10800"
  },
  "2614010900": {
    "lat": 35.11629,
    "lng": 129.02246,
    "name": "부민동1가",
    "sigunguCd": "26140",
    "bjdongCd": "10900"
  },
  "2614011000": {
    "lat": 35.11629,
    "lng": 129.02846,
    "name": "부민동2가",
    "sigunguCd": "26140",
    "bjdongCd": "11000"
  },
  "2614011100": {
    "lat": 35.12229,
    "lng": 129.00446,
    "name": "부민동3가",
    "sigunguCd": "26140",
    "bjdongCd": "11100"
  },
  "2614011200": {
    "lat": 35.12229,
    "lng": 129.01046,
    "name": "토성동1가",
    "sigunguCd": "26140",
    "bjdongCd": "11200"
  },
  "2614011300": {
    "lat": 35.12229,
    "lng": 129.01646,
    "name": "토성동2가",
    "sigunguCd": "26140",
    "bjdongCd": "11300"
  },
  "2614011400": {
    "lat": 35.12229,
    "lng": 129.02246,
    "name": "토성동3가",
    "sigunguCd": "26140",
    "bjdongCd": "11400"
  },
  "2614011500": {
    "lat": 35.12229,
    "lng": 129.02846,
    "name": "아미동1가",
    "sigunguCd": "26140",
    "bjdongCd": "11500"
  },
  "2614011600": {
    "lat": 35.12829,
    "lng": 129.00446,
    "name": "아미동2가",
    "sigunguCd": "26140",
    "bjdongCd": "11600"
  },
  "2614011700": {
    "lat": 35.12829,
    "lng": 129.01046,
    "name": "토성동4가",
    "sigunguCd": "26140",
    "bjdongCd": "11700"
  },
  "2614011800": {
    "lat": 35.12829,
    "lng": 129.01646,
    "name": "토성동5가",
    "sigunguCd": "26140",
    "bjdongCd": "11800"
  },
  "2614011900": {
    "lat": 35.12829,
    "lng": 129.02246,
    "name": "초장동",
    "sigunguCd": "26140",
    "bjdongCd": "11900"
  },
  "2614012000": {
    "lat": 35.12829,
    "lng": 129.02846,
    "name": "충무동1가",
    "sigunguCd": "26140",
    "bjdongCd": "12000"
  },
  "2614012100": {
    "lat": 35.13429,
    "lng": 129.00446,
    "name": "충무동2가",
    "sigunguCd": "26140",
    "bjdongCd": "12100"
  },
  "2614012200": {
    "lat": 35.13429,
    "lng": 129.01046,
    "name": "충무동3가",
    "sigunguCd": "26140",
    "bjdongCd": "12200"
  },
  "2614012300": {
    "lat": 35.13429,
    "lng": 129.01646,
    "name": "남부민동",
    "sigunguCd": "26140",
    "bjdongCd": "12300"
  },
  "2614012400": {
    "lat": 35.13429,
    "lng": 129.02246,
    "name": "암남동",
    "sigunguCd": "26140",
    "bjdongCd": "12400"
  },
  "2617010100": {
    "lat": 35.11868,
    "lng": 129.02832,
    "name": "초량동",
    "sigunguCd": "26170",
    "bjdongCd": "10100"
  },
  "2617010200": {
    "lat": 35.11868,
    "lng": 129.03432,
    "name": "수정동",
    "sigunguCd": "26170",
    "bjdongCd": "10200"
  },
  "2617010300": {
    "lat": 35.12468,
    "lng": 129.02832,
    "name": "좌천동",
    "sigunguCd": "26170",
    "bjdongCd": "10300"
  },
  "2617010400": {
    "lat": 35.12468,
    "lng": 129.03432,
    "name": "범일동",
    "sigunguCd": "26170",
    "bjdongCd": "10400"
  },
  "2620010100": {
    "lat": 35.06349,
    "lng": 129.04983,
    "name": "대교동1가",
    "sigunguCd": "26200",
    "bjdongCd": "10100"
  },
  "2620010200": {
    "lat": 35.06349,
    "lng": 129.05583,
    "name": "대교동2가",
    "sigunguCd": "26200",
    "bjdongCd": "10200"
  },
  "2620010300": {
    "lat": 35.06349,
    "lng": 129.06183,
    "name": "대평동1가",
    "sigunguCd": "26200",
    "bjdongCd": "10300"
  },
  "2620010400": {
    "lat": 35.06349,
    "lng": 129.06783,
    "name": "대평동2가",
    "sigunguCd": "26200",
    "bjdongCd": "10400"
  },
  "2620010500": {
    "lat": 35.06349,
    "lng": 129.07383,
    "name": "남항동1가",
    "sigunguCd": "26200",
    "bjdongCd": "10500"
  },
  "2620010600": {
    "lat": 35.06949,
    "lng": 129.04983,
    "name": "남항동2가",
    "sigunguCd": "26200",
    "bjdongCd": "10600"
  },
  "2620010700": {
    "lat": 35.06949,
    "lng": 129.05583,
    "name": "남항동3가",
    "sigunguCd": "26200",
    "bjdongCd": "10700"
  },
  "2620010800": {
    "lat": 35.06949,
    "lng": 129.06183,
    "name": "영선동1가",
    "sigunguCd": "26200",
    "bjdongCd": "10800"
  },
  "2620010900": {
    "lat": 35.06949,
    "lng": 129.06783,
    "name": "영선동2가",
    "sigunguCd": "26200",
    "bjdongCd": "10900"
  },
  "2620011000": {
    "lat": 35.06949,
    "lng": 129.07383,
    "name": "영선동3가",
    "sigunguCd": "26200",
    "bjdongCd": "11000"
  },
  "2620011100": {
    "lat": 35.07549,
    "lng": 129.04983,
    "name": "영선동4가",
    "sigunguCd": "26200",
    "bjdongCd": "11100"
  },
  "2620011200": {
    "lat": 35.07549,
    "lng": 129.05583,
    "name": "신선동1가",
    "sigunguCd": "26200",
    "bjdongCd": "11200"
  },
  "2620011300": {
    "lat": 35.07549,
    "lng": 129.06183,
    "name": "신선동2가",
    "sigunguCd": "26200",
    "bjdongCd": "11300"
  },
  "2620011400": {
    "lat": 35.07549,
    "lng": 129.06783,
    "name": "신선동3가",
    "sigunguCd": "26200",
    "bjdongCd": "11400"
  },
  "2620011500": {
    "lat": 35.07549,
    "lng": 129.07383,
    "name": "봉래동1가",
    "sigunguCd": "26200",
    "bjdongCd": "11500"
  },
  "2620011600": {
    "lat": 35.08149,
    "lng": 129.04983,
    "name": "봉래동2가",
    "sigunguCd": "26200",
    "bjdongCd": "11600"
  },
  "2620011700": {
    "lat": 35.08149,
    "lng": 129.05583,
    "name": "봉래동3가",
    "sigunguCd": "26200",
    "bjdongCd": "11700"
  },
  "2620011800": {
    "lat": 35.08149,
    "lng": 129.06183,
    "name": "봉래동4가",
    "sigunguCd": "26200",
    "bjdongCd": "11800"
  },
  "2620011900": {
    "lat": 35.08149,
    "lng": 129.06783,
    "name": "봉래동5가",
    "sigunguCd": "26200",
    "bjdongCd": "11900"
  },
  "2620012000": {
    "lat": 35.08149,
    "lng": 129.07383,
    "name": "청학동",
    "sigunguCd": "26200",
    "bjdongCd": "12000"
  },
  "2620012100": {
    "lat": 35.08749,
    "lng": 129.04983,
    "name": "동삼동",
    "sigunguCd": "26200",
    "bjdongCd": "12100"
  },
  "2623010100": {
    "lat": 35.15393,
    "lng": 129.03933,
    "name": "양정동",
    "sigunguCd": "26230",
    "bjdongCd": "10100"
  },
  "2623010200": {
    "lat": 35.15393,
    "lng": 129.04533,
    "name": "전포동",
    "sigunguCd": "26230",
    "bjdongCd": "10200"
  },
  "2623010300": {
    "lat": 35.15393,
    "lng": 129.05133,
    "name": "부전동",
    "sigunguCd": "26230",
    "bjdongCd": "10300"
  },
  "2623010400": {
    "lat": 35.15393,
    "lng": 129.05733,
    "name": "범천동",
    "sigunguCd": "26230",
    "bjdongCd": "10400"
  },
  "2623010500": {
    "lat": 35.15993,
    "lng": 129.03933,
    "name": "범전동",
    "sigunguCd": "26230",
    "bjdongCd": "10500"
  },
  "2623010600": {
    "lat": 35.15993,
    "lng": 129.04533,
    "name": "연지동",
    "sigunguCd": "26230",
    "bjdongCd": "10600"
  },
  "2623010700": {
    "lat": 35.15993,
    "lng": 129.05133,
    "name": "초읍동",
    "sigunguCd": "26230",
    "bjdongCd": "10700"
  },
  "2623010800": {
    "lat": 35.15993,
    "lng": 129.05733,
    "name": "부암동",
    "sigunguCd": "26230",
    "bjdongCd": "10800"
  },
  "2623010900": {
    "lat": 35.16593,
    "lng": 129.03933,
    "name": "당감동",
    "sigunguCd": "26230",
    "bjdongCd": "10900"
  },
  "2623011000": {
    "lat": 35.16593,
    "lng": 129.04533,
    "name": "가야동",
    "sigunguCd": "26230",
    "bjdongCd": "11000"
  },
  "2623011100": {
    "lat": 35.16593,
    "lng": 129.05133,
    "name": "개금동",
    "sigunguCd": "26230",
    "bjdongCd": "11100"
  },
  "2626010100": {
    "lat": 35.19547,
    "lng": 129.069,
    "name": "명장동",
    "sigunguCd": "26260",
    "bjdongCd": "10100"
  },
  "2626010200": {
    "lat": 35.19547,
    "lng": 129.075,
    "name": "안락동",
    "sigunguCd": "26260",
    "bjdongCd": "10200"
  },
  "2626010300": {
    "lat": 35.19547,
    "lng": 129.081,
    "name": "칠산동",
    "sigunguCd": "26260",
    "bjdongCd": "10300"
  },
  "2626010400": {
    "lat": 35.20147,
    "lng": 129.069,
    "name": "낙민동",
    "sigunguCd": "26260",
    "bjdongCd": "10400"
  },
  "2626010500": {
    "lat": 35.20147,
    "lng": 129.075,
    "name": "복천동",
    "sigunguCd": "26260",
    "bjdongCd": "10500"
  },
  "2626010600": {
    "lat": 35.20147,
    "lng": 129.081,
    "name": "수안동",
    "sigunguCd": "26260",
    "bjdongCd": "10600"
  },
  "2626010700": {
    "lat": 35.20747,
    "lng": 129.069,
    "name": "명륜동",
    "sigunguCd": "26260",
    "bjdongCd": "10700"
  },
  "2626010800": {
    "lat": 35.20747,
    "lng": 129.075,
    "name": "온천동",
    "sigunguCd": "26260",
    "bjdongCd": "10800"
  },
  "2626010900": {
    "lat": 35.20747,
    "lng": 129.081,
    "name": "사직동",
    "sigunguCd": "26260",
    "bjdongCd": "10900"
  },
  "2629010600": {
    "lat": 35.13048,
    "lng": 129.07366,
    "name": "대연동",
    "sigunguCd": "26290",
    "bjdongCd": "10600"
  },
  "2629010700": {
    "lat": 35.13048,
    "lng": 129.07966,
    "name": "용호동",
    "sigunguCd": "26290",
    "bjdongCd": "10700"
  },
  "2629010800": {
    "lat": 35.13048,
    "lng": 129.08566,
    "name": "용당동",
    "sigunguCd": "26290",
    "bjdongCd": "10800"
  },
  "2629010900": {
    "lat": 35.13648,
    "lng": 129.07366,
    "name": "문현동",
    "sigunguCd": "26290",
    "bjdongCd": "10900"
  },
  "2629011000": {
    "lat": 35.13648,
    "lng": 129.07966,
    "name": "우암동",
    "sigunguCd": "26290",
    "bjdongCd": "11000"
  },
  "2629011100": {
    "lat": 35.13648,
    "lng": 129.08566,
    "name": "감만동",
    "sigunguCd": "26290",
    "bjdongCd": "11100"
  },
  "2632010100": {
    "lat": 35.19124,
    "lng": 128.98234,
    "name": "금곡동",
    "sigunguCd": "26320",
    "bjdongCd": "10100"
  },
  "2632010200": {
    "lat": 35.19124,
    "lng": 128.98834,
    "name": "화명동",
    "sigunguCd": "26320",
    "bjdongCd": "10200"
  },
  "2632010300": {
    "lat": 35.19124,
    "lng": 128.99434,
    "name": "만덕동",
    "sigunguCd": "26320",
    "bjdongCd": "10300"
  },
  "2632010400": {
    "lat": 35.19724,
    "lng": 128.98234,
    "name": "덕천동",
    "sigunguCd": "26320",
    "bjdongCd": "10400"
  },
  "2632010500": {
    "lat": 35.19724,
    "lng": 128.98834,
    "name": "구포동",
    "sigunguCd": "26320",
    "bjdongCd": "10500"
  },
  "2635010100": {
    "lat": 35.15765,
    "lng": 129.15892,
    "name": "반송동",
    "sigunguCd": "26350",
    "bjdongCd": "10100"
  },
  "2635010200": {
    "lat": 35.15765,
    "lng": 129.16492,
    "name": "석대동",
    "sigunguCd": "26350",
    "bjdongCd": "10200"
  },
  "2635010300": {
    "lat": 35.15765,
    "lng": 129.17092,
    "name": "반여동",
    "sigunguCd": "26350",
    "bjdongCd": "10300"
  },
  "2635010400": {
    "lat": 35.16365,
    "lng": 129.15892,
    "name": "재송동",
    "sigunguCd": "26350",
    "bjdongCd": "10400"
  },
  "2635010500": {
    "lat": 35.16365,
    "lng": 129.16492,
    "name": "우동",
    "sigunguCd": "26350",
    "bjdongCd": "10500"
  },
  "2635010600": {
    "lat": 35.16365,
    "lng": 129.17092,
    "name": "중동",
    "sigunguCd": "26350",
    "bjdongCd": "10600"
  },
  "2635010700": {
    "lat": 35.16965,
    "lng": 129.15892,
    "name": "좌동",
    "sigunguCd": "26350",
    "bjdongCd": "10700"
  },
  "2635010800": {
    "lat": 35.16965,
    "lng": 129.16492,
    "name": "송정동",
    "sigunguCd": "26350",
    "bjdongCd": "10800"
  },
  "2638010100": {
    "lat": 35.07652,
    "lng": 128.97825,
    "name": "괴정동",
    "sigunguCd": "26380",
    "bjdongCd": "10100"
  },
  "2638010200": {
    "lat": 35.07652,
    "lng": 128.98425,
    "name": "당리동",
    "sigunguCd": "26380",
    "bjdongCd": "10200"
  },
  "2638010300": {
    "lat": 35.07652,
    "lng": 128.99025,
    "name": "하단동",
    "sigunguCd": "26380",
    "bjdongCd": "10300"
  },
  "2638010400": {
    "lat": 35.08252,
    "lng": 128.97825,
    "name": "신평동",
    "sigunguCd": "26380",
    "bjdongCd": "10400"
  },
  "2638010500": {
    "lat": 35.08252,
    "lng": 128.98425,
    "name": "장림동",
    "sigunguCd": "26380",
    "bjdongCd": "10500"
  },
  "2638010600": {
    "lat": 35.08252,
    "lng": 128.99025,
    "name": "다대동",
    "sigunguCd": "26380",
    "bjdongCd": "10600"
  },
  "2638010700": {
    "lat": 35.08852,
    "lng": 128.97825,
    "name": "구평동",
    "sigunguCd": "26380",
    "bjdongCd": "10700"
  },
  "2638010800": {
    "lat": 35.08852,
    "lng": 128.98425,
    "name": "감천동",
    "sigunguCd": "26380",
    "bjdongCd": "10800"
  },
  "2641010100": {
    "lat": 35.24663,
    "lng": 129.0781,
    "name": "두구동",
    "sigunguCd": "26410",
    "bjdongCd": "10100"
  },
  "2641010200": {
    "lat": 35.24663,
    "lng": 129.0841,
    "name": "노포동",
    "sigunguCd": "26410",
    "bjdongCd": "10200"
  },
  "2641010300": {
    "lat": 35.24663,
    "lng": 129.0901,
    "name": "청룡동",
    "sigunguCd": "26410",
    "bjdongCd": "10300"
  },
  "2641010400": {
    "lat": 35.24663,
    "lng": 129.0961,
    "name": "남산동",
    "sigunguCd": "26410",
    "bjdongCd": "10400"
  },
  "2641010500": {
    "lat": 35.25263,
    "lng": 129.0781,
    "name": "선동",
    "sigunguCd": "26410",
    "bjdongCd": "10500"
  },
  "2641010600": {
    "lat": 35.25263,
    "lng": 129.0841,
    "name": "오륜동",
    "sigunguCd": "26410",
    "bjdongCd": "10600"
  },
  "2641010700": {
    "lat": 35.25263,
    "lng": 129.0901,
    "name": "구서동",
    "sigunguCd": "26410",
    "bjdongCd": "10700"
  },
  "2641010800": {
    "lat": 35.25263,
    "lng": 129.0961,
    "name": "장전동",
    "sigunguCd": "26410",
    "bjdongCd": "10800"
  },
  "2641010900": {
    "lat": 35.25863,
    "lng": 129.0781,
    "name": "부곡동",
    "sigunguCd": "26410",
    "bjdongCd": "10900"
  },
  "2641011000": {
    "lat": 35.25863,
    "lng": 129.0841,
    "name": "서동",
    "sigunguCd": "26410",
    "bjdongCd": "11000"
  },
  "2641011100": {
    "lat": 35.25863,
    "lng": 129.0901,
    "name": "금사동",
    "sigunguCd": "26410",
    "bjdongCd": "11100"
  },
  "2641011200": {
    "lat": 35.25863,
    "lng": 129.0961,
    "name": "회동동",
    "sigunguCd": "26410",
    "bjdongCd": "11200"
  },
  "2641011300": {
    "lat": 35.26463,
    "lng": 129.0781,
    "name": "금성동",
    "sigunguCd": "26410",
    "bjdongCd": "11300"
  },
  "2644010100": {
    "lat": 35.1443,
    "lng": 128.918,
    "name": "대저1동",
    "sigunguCd": "26440",
    "bjdongCd": "10100"
  },
  "2644010200": {
    "lat": 35.1443,
    "lng": 128.924,
    "name": "대저2동",
    "sigunguCd": "26440",
    "bjdongCd": "10200"
  },
  "2644010300": {
    "lat": 35.1443,
    "lng": 128.93,
    "name": "강동동",
    "sigunguCd": "26440",
    "bjdongCd": "10300"
  },
  "2644010400": {
    "lat": 35.1443,
    "lng": 128.936,
    "name": "명지동",
    "sigunguCd": "26440",
    "bjdongCd": "10400"
  },
  "2644010500": {
    "lat": 35.1443,
    "lng": 128.942,
    "name": "죽림동",
    "sigunguCd": "26440",
    "bjdongCd": "10500"
  },
  "2644010600": {
    "lat": 35.1503,
    "lng": 128.918,
    "name": "식만동",
    "sigunguCd": "26440",
    "bjdongCd": "10600"
  },
  "2644010700": {
    "lat": 35.1503,
    "lng": 128.924,
    "name": "죽동동",
    "sigunguCd": "26440",
    "bjdongCd": "10700"
  },
  "2644010800": {
    "lat": 35.1503,
    "lng": 128.93,
    "name": "봉림동",
    "sigunguCd": "26440",
    "bjdongCd": "10800"
  },
  "2644010900": {
    "lat": 35.1503,
    "lng": 128.936,
    "name": "송정동",
    "sigunguCd": "26440",
    "bjdongCd": "10900"
  },
  "2644011000": {
    "lat": 35.1503,
    "lng": 128.942,
    "name": "화전동",
    "sigunguCd": "26440",
    "bjdongCd": "11000"
  },
  "2644011100": {
    "lat": 35.1563,
    "lng": 128.918,
    "name": "녹산동",
    "sigunguCd": "26440",
    "bjdongCd": "11100"
  },
  "2644011200": {
    "lat": 35.1563,
    "lng": 128.924,
    "name": "생곡동",
    "sigunguCd": "26440",
    "bjdongCd": "11200"
  },
  "2644011300": {
    "lat": 35.1563,
    "lng": 128.93,
    "name": "구랑동",
    "sigunguCd": "26440",
    "bjdongCd": "11300"
  },
  "2644011400": {
    "lat": 35.1563,
    "lng": 128.936,
    "name": "지사동",
    "sigunguCd": "26440",
    "bjdongCd": "11400"
  },
  "2644011500": {
    "lat": 35.1563,
    "lng": 128.942,
    "name": "미음동",
    "sigunguCd": "26440",
    "bjdongCd": "11500"
  },
  "2644011600": {
    "lat": 35.1623,
    "lng": 128.918,
    "name": "범방동",
    "sigunguCd": "26440",
    "bjdongCd": "11600"
  },
  "2644011700": {
    "lat": 35.1623,
    "lng": 128.924,
    "name": "신호동",
    "sigunguCd": "26440",
    "bjdongCd": "11700"
  },
  "2644011800": {
    "lat": 35.1623,
    "lng": 128.93,
    "name": "동선동",
    "sigunguCd": "26440",
    "bjdongCd": "11800"
  },
  "2644011900": {
    "lat": 35.1623,
    "lng": 128.936,
    "name": "성북동",
    "sigunguCd": "26440",
    "bjdongCd": "11900"
  },
  "2644012000": {
    "lat": 35.1623,
    "lng": 128.942,
    "name": "눌차동",
    "sigunguCd": "26440",
    "bjdongCd": "12000"
  },
  "2644012100": {
    "lat": 35.1683,
    "lng": 128.918,
    "name": "천성동",
    "sigunguCd": "26440",
    "bjdongCd": "12100"
  },
  "2644012200": {
    "lat": 35.1683,
    "lng": 128.924,
    "name": "대항동",
    "sigunguCd": "26440",
    "bjdongCd": "12200"
  },
  "2647010100": {
    "lat": 35.17906,
    "lng": 129.07685,
    "name": "거제동",
    "sigunguCd": "26470",
    "bjdongCd": "10100"
  },
  "2647010200": {
    "lat": 35.17906,
    "lng": 129.08285,
    "name": "연산동",
    "sigunguCd": "26470",
    "bjdongCd": "10200"
  },
  "2650010100": {
    "lat": 35.15027,
    "lng": 129.10353,
    "name": "망미동",
    "sigunguCd": "26500",
    "bjdongCd": "10100"
  },
  "2650010200": {
    "lat": 35.15027,
    "lng": 129.10953,
    "name": "수영동",
    "sigunguCd": "26500",
    "bjdongCd": "10200"
  },
  "2650010300": {
    "lat": 35.15027,
    "lng": 129.11553,
    "name": "민락동",
    "sigunguCd": "26500",
    "bjdongCd": "10300"
  },
  "2650010400": {
    "lat": 35.15627,
    "lng": 129.10353,
    "name": "광안동",
    "sigunguCd": "26500",
    "bjdongCd": "10400"
  },
  "2650010500": {
    "lat": 35.15627,
    "lng": 129.10953,
    "name": "남천동",
    "sigunguCd": "26500",
    "bjdongCd": "10500"
  },
  "2653010100": {
    "lat": 35.13579,
    "lng": 128.97086,
    "name": "삼락동",
    "sigunguCd": "26530",
    "bjdongCd": "10100"
  },
  "2653010200": {
    "lat": 35.13579,
    "lng": 128.97686,
    "name": "모라동",
    "sigunguCd": "26530",
    "bjdongCd": "10200"
  },
  "2653010300": {
    "lat": 35.13579,
    "lng": 128.98286,
    "name": "덕포동",
    "sigunguCd": "26530",
    "bjdongCd": "10300"
  },
  "2653010400": {
    "lat": 35.14179,
    "lng": 128.97086,
    "name": "괘법동",
    "sigunguCd": "26530",
    "bjdongCd": "10400"
  },
  "2653010500": {
    "lat": 35.14179,
    "lng": 128.97686,
    "name": "감전동",
    "sigunguCd": "26530",
    "bjdongCd": "10500"
  },
  "2653010600": {
    "lat": 35.14179,
    "lng": 128.98286,
    "name": "주례동",
    "sigunguCd": "26530",
    "bjdongCd": "10600"
  },
  "2653010700": {
    "lat": 35.14779,
    "lng": 128.97086,
    "name": "학장동",
    "sigunguCd": "26530",
    "bjdongCd": "10700"
  },
  "2653010800": {
    "lat": 35.14779,
    "lng": 128.97686,
    "name": "엄궁동",
    "sigunguCd": "26530",
    "bjdongCd": "10800"
  },
  "2671025000": {
    "lat": 35.27321,
    "lng": 129.17376,
    "name": "기장읍",
    "sigunguCd": "26710",
    "bjdongCd": "25000"
  },
  "2671025021": {
    "lat": 35.27321,
    "lng": 129.17976,
    "name": "동부리",
    "sigunguCd": "26710",
    "bjdongCd": "25021"
  },
  "2671025022": {
    "lat": 35.27321,
    "lng": 129.18576,
    "name": "교리",
    "sigunguCd": "26710",
    "bjdongCd": "25022"
  },
  "2671025023": {
    "lat": 35.27321,
    "lng": 129.19176,
    "name": "신천리",
    "sigunguCd": "26710",
    "bjdongCd": "25023"
  },
  "2671025024": {
    "lat": 35.27321,
    "lng": 129.19776,
    "name": "죽성리",
    "sigunguCd": "26710",
    "bjdongCd": "25024"
  },
  "2671025025": {
    "lat": 35.27321,
    "lng": 129.20376,
    "name": "서부리",
    "sigunguCd": "26710",
    "bjdongCd": "25025"
  },
  "2671025026": {
    "lat": 35.27321,
    "lng": 129.20976,
    "name": "대라리",
    "sigunguCd": "26710",
    "bjdongCd": "25026"
  },
  "2671025027": {
    "lat": 35.27321,
    "lng": 129.21576,
    "name": "청강리",
    "sigunguCd": "26710",
    "bjdongCd": "25027"
  },
  "2671025028": {
    "lat": 35.27321,
    "lng": 129.22176,
    "name": "대변리",
    "sigunguCd": "26710",
    "bjdongCd": "25028"
  },
  "2671025029": {
    "lat": 35.27921,
    "lng": 129.17376,
    "name": "연화리",
    "sigunguCd": "26710",
    "bjdongCd": "25029"
  },
  "2671025030": {
    "lat": 35.27921,
    "lng": 129.17976,
    "name": "만화리",
    "sigunguCd": "26710",
    "bjdongCd": "25030"
  },
  "2671025031": {
    "lat": 35.27921,
    "lng": 129.18576,
    "name": "석산리",
    "sigunguCd": "26710",
    "bjdongCd": "25031"
  },
  "2671025032": {
    "lat": 35.27921,
    "lng": 129.19176,
    "name": "당사리",
    "sigunguCd": "26710",
    "bjdongCd": "25032"
  },
  "2671025033": {
    "lat": 35.27921,
    "lng": 129.19776,
    "name": "시랑리",
    "sigunguCd": "26710",
    "bjdongCd": "25033"
  },
  "2671025034": {
    "lat": 35.27921,
    "lng": 129.20376,
    "name": "내리",
    "sigunguCd": "26710",
    "bjdongCd": "25034"
  },
  "2671025300": {
    "lat": 35.27921,
    "lng": 129.20976,
    "name": "장안읍",
    "sigunguCd": "26710",
    "bjdongCd": "25300"
  },
  "2671025321": {
    "lat": 35.27921,
    "lng": 129.21576,
    "name": "좌천리",
    "sigunguCd": "26710",
    "bjdongCd": "25321"
  },
  "2671025322": {
    "lat": 35.27921,
    "lng": 129.22176,
    "name": "효암리",
    "sigunguCd": "26710",
    "bjdongCd": "25322"
  },
  "2671025323": {
    "lat": 35.28521,
    "lng": 129.17376,
    "name": "고리",
    "sigunguCd": "26710",
    "bjdongCd": "25323"
  },
  "2671025324": {
    "lat": 35.28521,
    "lng": 129.17976,
    "name": "좌동리",
    "sigunguCd": "26710",
    "bjdongCd": "25324"
  },
  "2671025325": {
    "lat": 35.28521,
    "lng": 129.18576,
    "name": "장안리",
    "sigunguCd": "26710",
    "bjdongCd": "25325"
  },
  "2671025326": {
    "lat": 35.28521,
    "lng": 129.19176,
    "name": "덕선리",
    "sigunguCd": "26710",
    "bjdongCd": "25326"
  },
  "2671025327": {
    "lat": 35.28521,
    "lng": 129.19776,
    "name": "용소리",
    "sigunguCd": "26710",
    "bjdongCd": "25327"
  },
  "2671025328": {
    "lat": 35.28521,
    "lng": 129.20376,
    "name": "기룡리",
    "sigunguCd": "26710",
    "bjdongCd": "25328"
  },
  "2671025329": {
    "lat": 35.28521,
    "lng": 129.20976,
    "name": "명례리",
    "sigunguCd": "26710",
    "bjdongCd": "25329"
  },
  "2671025330": {
    "lat": 35.28521,
    "lng": 129.21576,
    "name": "월내리",
    "sigunguCd": "26710",
    "bjdongCd": "25330"
  },
  "2671025331": {
    "lat": 35.28521,
    "lng": 129.22176,
    "name": "반룡리",
    "sigunguCd": "26710",
    "bjdongCd": "25331"
  },
  "2671025332": {
    "lat": 35.29121,
    "lng": 129.17376,
    "name": "임랑리",
    "sigunguCd": "26710",
    "bjdongCd": "25332"
  },
  "2671025333": {
    "lat": 35.29121,
    "lng": 129.17976,
    "name": "오리",
    "sigunguCd": "26710",
    "bjdongCd": "25333"
  },
  "2671025334": {
    "lat": 35.29121,
    "lng": 129.18576,
    "name": "길천리",
    "sigunguCd": "26710",
    "bjdongCd": "25334"
  },
  "2671025600": {
    "lat": 35.29121,
    "lng": 129.19176,
    "name": "정관읍",
    "sigunguCd": "26710",
    "bjdongCd": "25600"
  },
  "2671025621": {
    "lat": 35.29121,
    "lng": 129.19776,
    "name": "방곡리",
    "sigunguCd": "26710",
    "bjdongCd": "25621"
  },
  "2671025622": {
    "lat": 35.29121,
    "lng": 129.20376,
    "name": "매학리",
    "sigunguCd": "26710",
    "bjdongCd": "25622"
  },
  "2671025623": {
    "lat": 35.29121,
    "lng": 129.20976,
    "name": "임곡리",
    "sigunguCd": "26710",
    "bjdongCd": "25623"
  },
  "2671025624": {
    "lat": 35.29121,
    "lng": 129.21576,
    "name": "월평리",
    "sigunguCd": "26710",
    "bjdongCd": "25624"
  },
  "2671025625": {
    "lat": 35.29121,
    "lng": 129.22176,
    "name": "달산리",
    "sigunguCd": "26710",
    "bjdongCd": "25625"
  },
  "2671025626": {
    "lat": 35.29721,
    "lng": 129.17376,
    "name": "병산리",
    "sigunguCd": "26710",
    "bjdongCd": "25626"
  },
  "2671025627": {
    "lat": 35.29721,
    "lng": 129.17976,
    "name": "모전리",
    "sigunguCd": "26710",
    "bjdongCd": "25627"
  },
  "2671025628": {
    "lat": 35.29721,
    "lng": 129.18576,
    "name": "용수리",
    "sigunguCd": "26710",
    "bjdongCd": "25628"
  },
  "2671025629": {
    "lat": 35.29721,
    "lng": 129.19176,
    "name": "두명리",
    "sigunguCd": "26710",
    "bjdongCd": "25629"
  },
  "2671025630": {
    "lat": 35.29721,
    "lng": 129.19776,
    "name": "예림리",
    "sigunguCd": "26710",
    "bjdongCd": "25630"
  },
  "2671025900": {
    "lat": 35.29721,
    "lng": 129.20376,
    "name": "일광읍",
    "sigunguCd": "26710",
    "bjdongCd": "25900"
  },
  "2671025921": {
    "lat": 35.29721,
    "lng": 129.20976,
    "name": "삼성리",
    "sigunguCd": "26710",
    "bjdongCd": "25921"
  },
  "2671025922": {
    "lat": 35.29721,
    "lng": 129.21576,
    "name": "이천리",
    "sigunguCd": "26710",
    "bjdongCd": "25922"
  },
  "2671025923": {
    "lat": 35.29721,
    "lng": 129.22176,
    "name": "학리",
    "sigunguCd": "26710",
    "bjdongCd": "25923"
  },
  "2671025924": {
    "lat": 35.30321,
    "lng": 129.17376,
    "name": "동백리",
    "sigunguCd": "26710",
    "bjdongCd": "25924"
  },
  "2671025925": {
    "lat": 35.30321,
    "lng": 129.17976,
    "name": "문중리",
    "sigunguCd": "26710",
    "bjdongCd": "25925"
  },
  "2671025926": {
    "lat": 35.30321,
    "lng": 129.18576,
    "name": "신평리",
    "sigunguCd": "26710",
    "bjdongCd": "25926"
  },
  "2671025927": {
    "lat": 35.30321,
    "lng": 129.19176,
    "name": "칠암리",
    "sigunguCd": "26710",
    "bjdongCd": "25927"
  },
  "2671025928": {
    "lat": 35.30321,
    "lng": 129.19776,
    "name": "문동리",
    "sigunguCd": "26710",
    "bjdongCd": "25928"
  },
  "2671025929": {
    "lat": 35.30321,
    "lng": 129.20376,
    "name": "청광리",
    "sigunguCd": "26710",
    "bjdongCd": "25929"
  },
  "2671025930": {
    "lat": 35.30321,
    "lng": 129.20976,
    "name": "원리",
    "sigunguCd": "26710",
    "bjdongCd": "25930"
  },
  "2671025931": {
    "lat": 35.30321,
    "lng": 129.21576,
    "name": "화전리",
    "sigunguCd": "26710",
    "bjdongCd": "25931"
  },
  "2671025932": {
    "lat": 35.30321,
    "lng": 129.22176,
    "name": "횡계리",
    "sigunguCd": "26710",
    "bjdongCd": "25932"
  },
  "2671025933": {
    "lat": 35.30921,
    "lng": 129.17376,
    "name": "용천리",
    "sigunguCd": "26710",
    "bjdongCd": "25933"
  },
  "2671033000": {
    "lat": 35.30921,
    "lng": 129.17976,
    "name": "철마면",
    "sigunguCd": "26710",
    "bjdongCd": "33000"
  },
  "2671033021": {
    "lat": 35.30921,
    "lng": 129.18576,
    "name": "와여리",
    "sigunguCd": "26710",
    "bjdongCd": "33021"
  },
  "2671033022": {
    "lat": 35.30921,
    "lng": 129.19176,
    "name": "장전리",
    "sigunguCd": "26710",
    "bjdongCd": "33022"
  },
  "2671033023": {
    "lat": 35.30921,
    "lng": 129.19776,
    "name": "백길리",
    "sigunguCd": "26710",
    "bjdongCd": "33023"
  },
  "2671033024": {
    "lat": 35.30921,
    "lng": 129.20376,
    "name": "송정리",
    "sigunguCd": "26710",
    "bjdongCd": "33024"
  },
  "2671033025": {
    "lat": 35.30921,
    "lng": 129.20976,
    "name": "웅천리",
    "sigunguCd": "26710",
    "bjdongCd": "33025"
  },
  "2671033026": {
    "lat": 35.30921,
    "lng": 129.21576,
    "name": "연구리",
    "sigunguCd": "26710",
    "bjdongCd": "33026"
  },
  "2671033027": {
    "lat": 35.30921,
    "lng": 129.22176,
    "name": "구칠리",
    "sigunguCd": "26710",
    "bjdongCd": "33027"
  },
  "2671033028": {
    "lat": 35.31521,
    "lng": 129.17376,
    "name": "이곡리",
    "sigunguCd": "26710",
    "bjdongCd": "33028"
  },
  "2671033029": {
    "lat": 35.31521,
    "lng": 129.17976,
    "name": "고촌리",
    "sigunguCd": "26710",
    "bjdongCd": "33029"
  },
  "2671033030": {
    "lat": 35.31521,
    "lng": 129.18576,
    "name": "안평리",
    "sigunguCd": "26710",
    "bjdongCd": "33030"
  },
  "2671033031": {
    "lat": 35.31521,
    "lng": 129.19176,
    "name": "임기리",
    "sigunguCd": "26710",
    "bjdongCd": "33031"
  }
}